[
    {
        "distance": "1.8km",
        "name": "여의도중앙점",
        "address": "서울 영등포구 여의도동 53-12",
        "packTime": "14분",
        "openHours": "11시 00분 ~ 22시 30분",
        "tel": "02-3775-1588"
    },
    {
        "distance": "2km",
        "name": "신수점",
        "address": "서울 마포구 구수동 57-3번지",
        "packTime": "14분",
        "openHours": "11시 00분 ~ 22시 30분",
        "tel": "02-3273-1588"
    },
    {
        "distance": "2km",
        "name": "여의도중앙점",
        "address": "서울 영등포구 여의도동 53-12",
        "packTime": "14분",
        "openHours": "11시 00분 ~ 22시 30분",
        "tel": "02-1588-3775"
    },
    {
        "distance": "1.8km",
        "name": "당산3호점",
        "address": "서울 영등포구 당산동3가 139-2호 화진빌딩 2층",
        "packTime": "14분",
        "openHours": "11시 00분 ~ 22시 30분",
        "tel": "02-2069-1823"
    },
    {
        "distance": "1.8km",
        "name": "대방점",
        "address": "서울 동작구 대방동 341-4",
        "packTime": "14분",
        "openHours": "11시 00분 ~ 22시 30분",
        "tel": "02-825-8400"
    }
]